{"type":"FeatureCollection","features":[{"type":"Feature","geometry":{"type":"Point","coordinates":[-122.2659,38.22216]},"properties":{"id":"wiki-Q4670844","name":"Acacia Winery","city":"","address":null,"phone":null,"website":"http://www.acaciavineyard.com","varietals":"","elevationFt":39,"listingUrl":"https://en.wikipedia.org/wiki/Acacia_Winery","ava":"Napa Valley","avaStack":"Napa Valley|North Coast","coordSource":"wikipedia"}},{"type":"Feature","geometry":{"type":"Point","coordinates":[-122.35654722,38.26926667]},"properties":{"id":"wiki-Q21188124","name":"Artesa Vineyards & Winery","city":"","address":null,"phone":null,"website":"https://www.artesawinery.com","varietals":"","elevationFt":262,"listingUrl":"https://en.wikipedia.org/wiki/Artesa_Vineyards_%26_Winery","ava":"Los Carneros","avaStack":"Los Carneros|Napa Valley|North Coast","coordSource":"wikidata"}},{"type":"Feature","geometry":{"type":"Point","coordinates":[-122.326294,38.344309]},"properties":{"id":"wiki-Q65058037","name":"Ashes & Diamonds Winery","city":"","address":null,"phone":null,"website":"https://ashesdiamonds.com","varietals":"","elevationFt":95,"listingUrl":"https://en.wikipedia.org/wiki/Ashes_%26_Diamonds_Winery","ava":"Oak Knoll District of Napa Valley","avaStack":"Oak Knoll District of Napa Valley|Napa Valley|North Coast","coordSource":"wikipedia"}},{"type":"Feature","geometry":{"type":"Point","coordinates":[-122.337257,38.418292]},"properties":{"id":"wiki-Q16950093","name":"Baldacci Family Vineyards","city":"","address":null,"phone":null,"website":"https://www.baldaccivineyards.com","varietals":"","elevationFt":115,"listingUrl":"https://en.wikipedia.org/wiki/Baldacci_Family_Vineyards","ava":"Stags Leap District","avaStack":"Stags Leap District|Napa Valley|North Coast","coordSource":"wikipedia"}},{"type":"Feature","geometry":{"type":"Point","coordinates":[-122.423444,38.460159]},"properties":{"id":"wiki-Q2893208","name":"Beaulieu Vineyard","city":"","address":null,"phone":null,"website":"https://www.bvwines.com","varietals":"","elevationFt":174,"listingUrl":"https://en.wikipedia.org/wiki/Beaulieu_Vineyard","ava":"Rutherford","avaStack":"Rutherford|Napa Valley|North Coast","coordSource":"wikipedia"}},{"type":"Feature","geometry":{"type":"Point","coordinates":[-122.479886,38.510158]},"properties":{"id":"wiki-Q4891843","name":"Beringer Vineyards","city":"","address":null,"phone":null,"website":"http://www.beringer.com","varietals":"","elevationFt":312,"listingUrl":"https://en.wikipedia.org/wiki/Beringer_Vineyards","ava":"St. Helena","avaStack":"St. Helena|Napa Valley|North Coast","coordSource":"wikipedia"}},{"type":"Feature","geometry":{"type":"Point","coordinates":[-122.5786157,38.5789961]},"properties":{"id":"wiki-Q4922591","name":"Blackbird Vineyards","city":"","address":null,"phone":null,"website":"http://www.blackbirdvineyards.com/","varietals":"","elevationFt":361,"listingUrl":"https://en.wikipedia.org/wiki/Blackbird_Vineyards","ava":"Calistoga","avaStack":"Calistoga|Napa Valley|North Coast","coordSource":"nominatim"}},{"type":"Feature","geometry":{"type":"Point","coordinates":[-122.38277778,38.39861111]},"properties":{"id":"wiki-Q16984538","name":"Blankiet Estate","city":"","address":null,"phone":null,"website":"https://www.blankiet.com","varietals":"","elevationFt":423,"listingUrl":"https://en.wikipedia.org/wiki/Blankiet_Estate","ava":"Yountville","avaStack":"Yountville|Napa Valley|North Coast","coordSource":"wikipedia"}},{"type":"Feature","geometry":{"type":"Point","coordinates":[-122.411,38.4119]},"properties":{"id":"wiki-Q137739124","name":"Bond","city":"","address":null,"phone":null,"website":"https://bondestates.com","varietals":"","elevationFt":538,"listingUrl":"https://en.wikipedia.org/wiki/Bond_(winery)","ava":"Oakville","avaStack":"Oakville|Napa Valley|North Coast","coordSource":"wikipedia"}},{"type":"Feature","geometry":{"type":"Point","coordinates":[-122.276707,38.505142]},"properties":{"id":"wiki-Q4976133","name":"Brown Estate","city":"","address":null,"phone":null,"website":"http://www.brownestate.com","varietals":"","elevationFt":997,"listingUrl":"https://en.wikipedia.org/wiki/Brown_Estate","ava":"Chiles Valley","avaStack":"Chiles Valley|Napa Valley|North Coast","coordSource":"wikidata"}},{"type":"Feature","geometry":{"type":"Point","coordinates":[-122.340211,38.484348]},"properties":{"id":"wiki-Q4980564","name":"Bryant Family Vineyard","city":"","address":null,"phone":null,"website":"http://www.bryantwines.com","varietals":"","elevationFt":938,"listingUrl":"https://en.wikipedia.org/wiki/Bryant_Family_Vineyard","ava":"Napa Valley","avaStack":"Napa Valley|North Coast","coordSource":"wikipedia"}},{"type":"Feature","geometry":{"type":"Point","coordinates":[-122.49385,38.521418]},"properties":{"id":"wiki-Q4998331","name":"Bure Family Wines","city":"","address":null,"phone":null,"website":"https://www.burefamilywines.com","varietals":"","elevationFt":249,"listingUrl":"https://en.wikipedia.org/wiki/Bure_Family_Wines","ava":"St. Helena","avaStack":"St. Helena|Napa Valley|North Coast","coordSource":"wikipedia"}},{"type":"Feature","geometry":{"type":"Point","coordinates":[-122.4748,38.5571]},"properties":{"id":"wiki-Q4998578","name":"Burgess Cellars","city":"","address":null,"phone":null,"website":"http://www.burgesscellars.com","varietals":"","elevationFt":912,"listingUrl":"https://en.wikipedia.org/wiki/Burgess_Cellars","ava":"Crystal Springs of Napa Valley","avaStack":"Crystal Springs of Napa Valley|Napa Valley|North Coast","coordSource":"wikipedia"}},{"type":"Feature","geometry":{"type":"Point","coordinates":[-122.410739,38.447897]},"properties":{"id":"wiki-Q17986201","name":"Cakebread Cellars","city":"","address":null,"phone":null,"website":"https://www.cakebread.com","varietals":"","elevationFt":148,"listingUrl":"https://en.wikipedia.org/wiki/Cakebread_Cellars","ava":"Rutherford","avaStack":"Rutherford|Napa Valley|North Coast","coordSource":"wikipedia"}},{"type":"Feature","geometry":{"type":"Point","coordinates":[-122.5427,38.5584]},"properties":{"id":"wiki-Q1913305","name":"Castello di Amorosa","city":"","address":null,"phone":"+1-707-967-6272","website":"http://www.castellodiamorosa.com","varietals":"","elevationFt":463,"listingUrl":"https://en.wikipedia.org/wiki/Castello_di_Amorosa","ava":"Diamond Mountain District","avaStack":"Diamond Mountain District|Napa Valley|North Coast","coordSource":"wikipedia"}},{"type":"Feature","geometry":{"type":"Point","coordinates":[-122.398617,38.469231]},"properties":{"id":"wiki-Q5055405","name":"Caymus Vineyards","city":"","address":null,"phone":null,"website":"https://www.caymus.com","varietals":"","elevationFt":157,"listingUrl":"https://en.wikipedia.org/wiki/Caymus_Vineyards","ava":"Rutherford","avaStack":"Rutherford|Napa Valley|North Coast","coordSource":"wikidata"}},{"type":"Feature","geometry":{"type":"Point","coordinates":[-122.314545,38.235586]},"properties":{"id":"wiki-Q5057390","name":"Ceja Vineyards","city":"","address":null,"phone":null,"website":"http://www.cejavineyards.com","varietals":"","elevationFt":26,"listingUrl":"https://en.wikipedia.org/wiki/Ceja_Vineyards","ava":"Los Carneros","avaStack":"Los Carneros|Napa Valley|North Coast","coordSource":"wikipedia"}},{"type":"Feature","geometry":{"type":"Point","coordinates":[-122.335431,38.48201]},"properties":{"id":"wiki-Q135246281","name":"Chappellet Vineyard","city":"","address":null,"phone":null,"website":"https://www.chappellet.com","varietals":"","elevationFt":1142,"listingUrl":"https://en.wikipedia.org/wiki/Chappellet_Vineyard","ava":"Napa Valley","avaStack":"Napa Valley|North Coast","coordSource":"wikipedia"}},{"type":"Feature","geometry":{"type":"Point","coordinates":[-122.48027778,38.5175]},"properties":{"id":"wiki-Q18753758","name":"Charles Krug Winery","city":"","address":null,"phone":null,"website":"https://www.charleskrug.com","varietals":"","elevationFt":249,"listingUrl":"https://en.wikipedia.org/wiki/Charles_Krug_Winery","ava":"St. Helena","avaStack":"St. Helena|Napa Valley|North Coast","coordSource":"wikipedia"}},{"type":"Feature","geometry":{"type":"Point","coordinates":[-122.59991,38.6025182]},"properties":{"id":"wiki-Q116766","name":"Chateau Montelena","city":"","address":null,"phone":null,"website":"http://www.montelena.com/","varietals":"","elevationFt":427,"listingUrl":"https://en.wikipedia.org/wiki/Chateau_Montelena","ava":"Calistoga","avaStack":"Calistoga|Napa Valley|North Coast","coordSource":"wikipedia"}},{"type":"Feature","geometry":{"type":"Point","coordinates":[-122.312686,38.387202]},"properties":{"id":"wiki-Q5135154","name":"Clos Du Val Winery","city":"","address":null,"phone":null,"website":"https://www.closduval.com/","varietals":"","elevationFt":72,"listingUrl":"https://en.wikipedia.org/wiki/Clos_Du_Val_Winery","ava":"Stags Leap District","avaStack":"Stags Leap District|Napa Valley|North Coast","coordSource":"wikipedia"}},{"type":"Feature","geometry":{"type":"Point","coordinates":[-122.348009,38.471816]},"properties":{"id":"wiki-Q5144792","name":"Colgin Cellars","city":"","address":null,"phone":null,"website":"http://www.colgincellars.com","varietals":"","elevationFt":1079,"listingUrl":"https://en.wikipedia.org/wiki/Colgin_Cellars","ava":"Napa Valley","avaStack":"Napa Valley|North Coast","coordSource":"wikipedia"}},{"type":"Feature","geometry":{"type":"Point","coordinates":[-122.351414,38.255478]},"properties":{"id":"wiki-Q48802764","name":"Domaine Carneros","city":"","address":null,"phone":null,"website":"https://www.domainecarneros.com","varietals":"","elevationFt":157,"listingUrl":"https://en.wikipedia.org/wiki/Domaine_Carneros","ava":"Los Carneros","avaStack":"Los Carneros|Napa Valley|North Coast","coordSource":"nominatim"}},{"type":"Feature","geometry":{"type":"Point","coordinates":[-122.365079,38.397241]},"properties":{"id":"wiki-Q5289839","name":"Domaine Chandon California","city":"","address":null,"phone":null,"website":"http://www.chandon.com","varietals":"","elevationFt":157,"listingUrl":"https://en.wikipedia.org/wiki/Domaine_Chandon_California","ava":"Yountville","avaStack":"Yountville|Napa Valley|North Coast","coordSource":"wikipedia"}},{"type":"Feature","geometry":{"type":"Point","coordinates":[-122.37388889,38.405]},"properties":{"id":"wiki-Q5291238","name":"Dominus Estate","city":"","address":null,"phone":null,"website":"http://www.dominusestate.com","varietals":"","elevationFt":151,"listingUrl":"https://en.wikipedia.org/wiki/Dominus_Estate","ava":"Yountville","avaStack":"Yountville|Napa Valley|North Coast","coordSource":"wikipedia"}},{"type":"Feature","geometry":{"type":"Point","coordinates":[-122.4031,38.4258]},"properties":{"id":"wiki-Q96377786","name":"Far Niente Winery","city":"","address":null,"phone":null,"website":"https://farniente.com","varietals":"","elevationFt":203,"listingUrl":"https://en.wikipedia.org/wiki/Far_Niente_Winery","ava":"Oakville","avaStack":"Oakville|Napa Valley|North Coast","coordSource":"wikipedia"}},{"type":"Feature","geometry":{"type":"Point","coordinates":[-122.49693,38.52451]},"properties":{"id":"wiki-Q5501057","name":"Freemark Abbey Winery","city":"","address":null,"phone":null,"website":"http://www.freemarkabbey.com","varietals":"","elevationFt":308,"listingUrl":"https://en.wikipedia.org/wiki/Freemark_Abbey_Winery","ava":"St. Helena","avaStack":"St. Helena|Napa Valley|North Coast","coordSource":"wikipedia"}},{"type":"Feature","geometry":{"type":"Point","coordinates":[-122.401,38.4737]},"properties":{"id":"wiki-Q5505161","name":"Frog's Leap Winery","city":"","address":null,"phone":null,"website":"http://www.frogsleap.com","varietals":"","elevationFt":167,"listingUrl":"https://en.wikipedia.org/wiki/Frog's_Leap_Winery","ava":"Rutherford","avaStack":"Rutherford|Napa Valley|North Coast","coordSource":"wikipedia"}},{"type":"Feature","geometry":{"type":"Point","coordinates":[-122.2373557,38.0799425]},"properties":{"id":"wiki-Q5591168","name":"Grace Family Vineyards","city":"","address":null,"phone":null,"website":"http://www.gracefamilyvineyards.com","varietals":"","elevationFt":112,"listingUrl":"https://en.wikipedia.org/wiki/Grace_Family_Vineyards","ava":"","avaStack":"","coordSource":"nominatim"}},{"type":"Feature","geometry":{"type":"Point","coordinates":[-122.432606,38.469819]},"properties":{"id":"wiki-Q5608526","name":"Grgich Hills Estate","city":"","address":null,"phone":null,"website":"http://www.grgich.com/","varietals":"","elevationFt":164,"listingUrl":"https://en.wikipedia.org/wiki/Grgich_Hills_Estate","ava":"Rutherford","avaStack":"Rutherford|Napa Valley|North Coast","coordSource":"wikipedia"}},{"type":"Feature","geometry":{"type":"Point","coordinates":[-122.291666,38.363534]},"properties":{"id":"wiki-Q5638504","name":"Hagafen Cellars","city":"","address":null,"phone":null,"website":"https://www.hagafen.com","varietals":"","elevationFt":85,"listingUrl":"https://en.wikipedia.org/wiki/Hagafen_Cellars","ava":"Napa Valley","avaStack":"Napa Valley|North Coast","coordSource":"wikipedia"}},{"type":"Feature","geometry":{"type":"Point","coordinates":[-122.40833333,38.415]},"properties":{"id":"wiki-Q5658308","name":"Harlan Estate","city":"","address":null,"phone":null,"website":"http://www.harlanestate.com","varietals":"","elevationFt":482,"listingUrl":"https://en.wikipedia.org/wiki/Harlan_Estate","ava":"Oakville","avaStack":"Oakville|Napa Valley|North Coast","coordSource":"wikipedia"}},{"type":"Feature","geometry":{"type":"Point","coordinates":[-122.417865,38.501497]},"properties":{"id":"wiki-Q5701158","name":"Heitz Wine Cellars","city":"","address":null,"phone":null,"website":"http://www.heitzcellar.com","varietals":"","elevationFt":427,"listingUrl":"https://en.wikipedia.org/wiki/Heitz_Wine_Cellars","ava":"St. Helena","avaStack":"St. Helena|Napa Valley|North Coast","coordSource":"wikipedia"}},{"type":"Feature","geometry":{"type":"Point","coordinates":[-122.43052778,38.45488889]},"properties":{"id":"wiki-Q16996940","name":"Inglenook","city":"","address":null,"phone":null,"website":"https://www.inglenook.com","varietals":"","elevationFt":200,"listingUrl":"https://en.wikipedia.org/wiki/Inglenook_(winery)","ava":"Rutherford","avaStack":"Rutherford|Napa Valley|North Coast","coordSource":"wikipedia"}},{"type":"Feature","geometry":{"type":"Point","coordinates":[-122.4524692,38.4923872]},"properties":{"id":"wiki-Q85782300","name":"Louis M. Martini Winery","city":"","address":null,"phone":null,"website":"https://www.louismartini.com","varietals":"","elevationFt":240,"listingUrl":"https://en.wikipedia.org/wiki/Louis_M._Martini_Winery","ava":"St. Helena","avaStack":"St. Helena|Napa Valley|North Coast","coordSource":"nominatim"}},{"type":"Feature","geometry":{"type":"Point","coordinates":[-122.48895,38.51917]},"properties":{"id":"wiki-Q17020328","name":"Markham Vineyards","city":"","address":null,"phone":null,"website":"http://www.markhamvineyards.com","varietals":"","elevationFt":230,"listingUrl":"https://en.wikipedia.org/wiki/Markham_Vineyards","ava":"St. Helena","avaStack":"St. Helena|Napa Valley|North Coast","coordSource":"wikidata"}},{"type":"Feature","geometry":{"type":"Point","coordinates":[-122.420161,38.369651]},"properties":{"id":"wiki-Q6796775","name":"Mayacamas Vineyards","city":"","address":null,"phone":null,"website":"http://www.mayacamas.com","varietals":"","elevationFt":1621,"listingUrl":"https://en.wikipedia.org/wiki/Mayacamas_Vineyards","ava":"Mt. Veeder","avaStack":"Mt. Veeder|Napa Valley|North Coast","coordSource":"wikipedia"}},{"type":"Feature","geometry":{"type":"Point","coordinates":[-122.2925,38.49916666666667]},"properties":{"id":"wiki-Q18753759","name":"Nichelini Family Winery","city":"","address":null,"phone":null,"website":"https://www.nicheliniwinery.com","varietals":"","elevationFt":833,"listingUrl":"https://en.wikipedia.org/wiki/Nichelini_Family_Winery","ava":"Napa Valley","avaStack":"Napa Valley|North Coast","coordSource":"wikidata"}},{"type":"Feature","geometry":{"type":"Point","coordinates":[-122.399988,38.441287]},"properties":{"id":"wiki-Q448588","name":"Opus One Winery","city":"","address":null,"phone":null,"website":"http://www.opusonewinery.com/","varietals":"","elevationFt":144,"listingUrl":"https://en.wikipedia.org/wiki/Opus_One_Winery","ava":"Oakville","avaStack":"Oakville|Napa Valley|North Coast","coordSource":"wikipedia"}},{"type":"Feature","geometry":{"type":"Point","coordinates":[-122.343007,38.461286]},"properties":{"id":"wiki-Q60760579","name":"Ovid Napa Valley","city":"","address":null,"phone":null,"website":"https://www.ovid.wine","varietals":"","elevationFt":1266,"listingUrl":"https://en.wikipedia.org/wiki/Ovid_Napa_Valley","ava":"Napa Valley","avaStack":"Napa Valley|North Coast","coordSource":"wikipedia"}},{"type":"Feature","geometry":{"type":"Point","coordinates":[-122.225,38.32361111]},"properties":{"id":"wiki-Q7128164","name":"Palmaz Vineyards","city":"","address":null,"phone":null,"website":"http://www.palmazvineyards.com/","varietals":"","elevationFt":394,"listingUrl":"https://en.wikipedia.org/wiki/Palmaz_Vineyards","ava":"Coombsville","avaStack":"Coombsville|Napa Valley|North Coast","coordSource":"wikipedia"}},{"type":"Feature","geometry":{"type":"Point","coordinates":[-122.33229444,38.4053]},"properties":{"id":"wiki-Q21188741","name":"Pine Ridge Vineyards","city":"","address":null,"phone":null,"website":"https://www.pineridgevineyards.com","varietals":"","elevationFt":177,"listingUrl":"https://en.wikipedia.org/wiki/Pine_Ridge_Vineyards","ava":"Stags Leap District","avaStack":"Stags Leap District|Napa Valley|North Coast","coordSource":"wikidata"}},{"type":"Feature","geometry":{"type":"Point","coordinates":[-122.37416667,38.45555556]},"properties":{"id":"wiki-Q7205454","name":"PlumpJack Winery","city":"","address":null,"phone":null,"website":"http://www.plumpjack.com/winery1.html","varietals":"","elevationFt":151,"listingUrl":"https://en.wikipedia.org/wiki/PlumpJack_Winery","ava":"Oakville","avaStack":"Oakville|Napa Valley|North Coast","coordSource":"wikipedia"}},{"type":"Feature","geometry":{"type":"Point","coordinates":[-122.41444444,38.42194444]},"properties":{"id":"wiki-Q137196078","name":"Promontory","city":"","address":null,"phone":null,"website":"https://www.promontory.wine","varietals":"","elevationFt":361,"listingUrl":"https://en.wikipedia.org/wiki/Promontory_(winery)","ava":"Oakville","avaStack":"Oakville|Napa Valley|North Coast","coordSource":"wikipedia"}},{"type":"Feature","geometry":{"type":"Point","coordinates":[-122.32349494197179,38.41807646315018]},"properties":{"id":"wiki-Q7272697","name":"Quixote Winery","city":"","address":null,"phone":null,"website":"http://www.quixotewinery.com","varietals":"","elevationFt":233,"listingUrl":"https://en.wikipedia.org/wiki/Quixote_Winery","ava":"Stags Leap District","avaStack":"Stags Leap District|Napa Valley|North Coast","coordSource":"wikidata"}},{"type":"Feature","geometry":{"type":"Point","coordinates":[-122.4093929,38.4414863]},"properties":{"id":"wiki-Q75837453","name":"Robert Mondavi Winery","city":"","address":null,"phone":null,"website":"https://robertmondaviwinery.com/","varietals":"","elevationFt":167,"listingUrl":"https://en.wikipedia.org/wiki/Robert_Mondavi_Winery","ava":"Oakville","avaStack":"Oakville|Napa Valley|North Coast","coordSource":"nominatim"}},{"type":"Feature","geometry":{"type":"Point","coordinates":[-122.431013,38.454366]},"properties":{"id":"wiki-Q6304725","name":"Rubicon Estate Winery","city":"","address":null,"phone":null,"website":"http://www.inglenook.com/site.php","varietals":"","elevationFt":207,"listingUrl":"https://en.wikipedia.org/wiki/Rubicon_Estate_Winery","ava":"Rutherford","avaStack":"Rutherford|Napa Valley|North Coast","coordSource":"wikipedia"}},{"type":"Feature","geometry":{"type":"Point","coordinates":[-122.4228,38.4644]},"properties":{"id":"wiki-Q7430351","name":"Scarecrow","city":"","address":null,"phone":null,"website":"http://www.scarecrowwine.com","varietals":"","elevationFt":157,"listingUrl":"https://en.wikipedia.org/wiki/Scarecrow_(wine)","ava":"Rutherford","avaStack":"Rutherford|Napa Valley|North Coast","coordSource":"wikipedia"}},{"type":"Feature","geometry":{"type":"Point","coordinates":[-122.539648,38.550641]},"properties":{"id":"wiki-Q7432798","name":"Schramsberg Vineyards","city":"","address":null,"phone":null,"website":"http://www.schramsberg.com","varietals":"","elevationFt":863,"listingUrl":"https://en.wikipedia.org/wiki/Schramsberg_Vineyards","ava":"Diamond Mountain District","avaStack":"Diamond Mountain District|Napa Valley|North Coast","coordSource":"wikipedia"}},{"type":"Feature","geometry":{"type":"Point","coordinates":[-122.38111111,38.44055556]},"properties":{"id":"wiki-Q7516217","name":"Silver Oak Cellars","city":"","address":null,"phone":null,"website":"https://silveroak.com/","varietals":"","elevationFt":125,"listingUrl":"https://en.wikipedia.org/wiki/Silver_Oak_Cellars","ava":"Oakville","avaStack":"Oakville|Napa Valley|North Coast","coordSource":"wikipedia"}},{"type":"Feature","geometry":{"type":"Point","coordinates":[-122.336283,38.412273]},"properties":{"id":"wiki-Q7516630","name":"Silverado Vineyards Winery","city":"","address":null,"phone":null,"website":"http://www.silveradovineyards.com/","varietals":"","elevationFt":217,"listingUrl":"https://en.wikipedia.org/wiki/Silverado_Vineyards_Winery","ava":"Stags Leap District","avaStack":"Stags Leap District|Napa Valley|North Coast","coordSource":"wikipedia"}},{"type":"Feature","geometry":{"type":"Point","coordinates":[-122.5563546,38.531392]},"properties":{"id":"wiki-Q7544919","name":"Smith-Madrone Vineyards and Winery","city":"","address":null,"phone":null,"website":"https://smithmadrone.com","varietals":"","elevationFt":1929,"listingUrl":"https://en.wikipedia.org/wiki/Smith-Madrone_Vineyards_and_Winery","ava":"Spring Mountain District","avaStack":"Spring Mountain District|Napa Valley|North Coast","coordSource":"nominatim"}},{"type":"Feature","geometry":{"type":"Point","coordinates":[-122.47880556,38.50022222]},"properties":{"id":"wiki-Q109300023","name":"Spottswoode Winery","city":"","address":null,"phone":null,"website":"https://www.spottswoode.com","varietals":"","elevationFt":299,"listingUrl":"https://en.wikipedia.org/wiki/Spottswoode_Winery","ava":"St. Helena","avaStack":"St. Helena|Napa Valley|North Coast","coordSource":"wikipedia"}},{"type":"Feature","geometry":{"type":"Point","coordinates":[-122.49181868401628,38.50732547775672]},"properties":{"id":"wiki-Q7580642","name":"Spring Mountain Vineyard","city":"","address":null,"phone":null,"website":"https://www.springmountainvineyard.com/","varietals":"","elevationFt":453,"listingUrl":"https://en.wikipedia.org/wiki/Spring_Mountain_Vineyard","ava":"Spring Mountain District","avaStack":"Spring Mountain District|Napa Valley|North Coast","coordSource":"wikidata"}},{"type":"Feature","geometry":{"type":"Point","coordinates":[-122.414159,38.455277]},"properties":{"id":"wiki-Q27150157","name":"St. Supéry Estate Vineyards & Winery","city":"","address":null,"phone":null,"website":"https://www.stsupery.com/","varietals":"","elevationFt":151,"listingUrl":"https://en.wikipedia.org/wiki/St._Sup%C3%A9ry_Estate_Vineyards_%26_Winery","ava":"Rutherford","avaStack":"Rutherford|Napa Valley|North Coast","coordSource":"wikipedia"}},{"type":"Feature","geometry":{"type":"Point","coordinates":[-122.325543,38.399343]},"properties":{"id":"wiki-Q3496351","name":"Stag's Leap Wine Cellars","city":"","address":null,"phone":null,"website":"https://www.stagsleapwinecellars.com/","varietals":"","elevationFt":154,"listingUrl":"https://en.wikipedia.org/wiki/Stag's_Leap_Wine_Cellars","ava":"Stags Leap District","avaStack":"Stags Leap District|Napa Valley|North Coast","coordSource":"wikipedia"}},{"type":"Feature","geometry":{"type":"Point","coordinates":[-122.321356,38.414167]},"properties":{"id":"wiki-Q7596969","name":"Stags' Leap Winery","city":"","address":null,"phone":null,"website":"http://www.stagsleapwinery.com","varietals":"","elevationFt":236,"listingUrl":"https://en.wikipedia.org/wiki/Stags'_Leap_Winery","ava":"Stags Leap District","avaStack":"Stags Leap District|Napa Valley|North Coast","coordSource":"wikipedia"}},{"type":"Feature","geometry":{"type":"Point","coordinates":[-122.5449,38.5696]},"properties":{"id":"wiki-Q7611485","name":"Sterling Vineyards","city":"","address":null,"phone":null,"website":"https://www.sterlingvineyards.com/","varietals":"","elevationFt":515,"listingUrl":"https://en.wikipedia.org/wiki/Sterling_Vineyards","ava":"Calistoga","avaStack":"Calistoga|Napa Valley|North Coast","coordSource":"wikipedia"}},{"type":"Feature","geometry":{"type":"Point","coordinates":[-122.530046,38.535651]},"properties":{"id":"wiki-Q7619562","name":"Stony Hill Vineyard","city":"","address":null,"phone":null,"website":"http://www.stonyhillvineyard.com","varietals":"","elevationFt":1047,"listingUrl":"https://en.wikipedia.org/wiki/Stony_Hill_Vineyard","ava":"Spring Mountain District","avaStack":"Spring Mountain District|Napa Valley|North Coast","coordSource":"wikipedia"}},{"type":"Feature","geometry":{"type":"Point","coordinates":[-122.4533,38.4913]},"properties":{"id":"wiki-Q3355779","name":"Sutter Home Winery","city":"","address":null,"phone":null,"website":"http://www.sutterhome.com/","varietals":"","elevationFt":226,"listingUrl":"https://en.wikipedia.org/wiki/Sutter_Home_Winery","ava":"St. Helena","avaStack":"St. Helena|Napa Valley|North Coast","coordSource":"wikipedia"}},{"type":"Feature","geometry":{"type":"Point","coordinates":[-122.48388889,38.51444444]},"properties":{"id":"wiki-Q5192950","name":"The Culinary Institute of America at Greystone","city":"","address":null,"phone":"+1-707-967-1100","website":"https://www.ciachef.edu/cia-california/","varietals":"","elevationFt":249,"listingUrl":"https://en.wikipedia.org/wiki/The_Culinary_Institute_of_America_at_Greystone","ava":"St. Helena","avaStack":"St. Helena|Napa Valley|North Coast","coordSource":"wikipedia"}},{"type":"Feature","geometry":{"type":"Point","coordinates":[-122.490705,38.529472]},"properties":{"id":"wiki-Q5311520","name":"The Duckhorn Portfolio","city":"","address":null,"phone":null,"website":"https://www.duckhorn.com/","varietals":"","elevationFt":259,"listingUrl":"https://en.wikipedia.org/wiki/The_Duckhorn_Portfolio","ava":"St. Helena","avaStack":"St. Helena|Napa Valley|North Coast","coordSource":"wikidata"}},{"type":"Feature","geometry":{"type":"Point","coordinates":[-122.33138889,38.36055556]},"properties":{"id":"wiki-Q7837768","name":"Trefethen Vineyards","city":"","address":null,"phone":null,"website":"http://www.trefethen.com","varietals":"","elevationFt":105,"listingUrl":"https://en.wikipedia.org/wiki/Trefethen_Vineyards","ava":"Oak Knoll District of Napa Valley","avaStack":"Oak Knoll District of Napa Valley|Napa Valley|North Coast","coordSource":"wikipedia"}},{"type":"Feature","geometry":{"type":"Point","coordinates":[-122.55666667,38.56611111]},"properties":{"id":"wiki-Q7859475","name":"Twomey Cellars","city":"","address":null,"phone":null,"website":"https://www.twomey.com/","varietals":"","elevationFt":322,"listingUrl":"https://en.wikipedia.org/wiki/Twomey_Cellars","ava":"Calistoga","avaStack":"Calistoga|Napa Valley|North Coast","coordSource":"wikipedia"}},{"type":"Feature","geometry":{"type":"Point","coordinates":[-122.448101,38.489057]},"properties":{"id":"wiki-Q7906244","name":"V. Sattui Winery","city":"","address":null,"phone":null,"website":"https://www.vsattui.com","varietals":"","elevationFt":220,"listingUrl":"https://en.wikipedia.org/wiki/V._Sattui_Winery","ava":"St. Helena","avaStack":"St. Helena|Napa Valley|North Coast","coordSource":"wikipedia"}},{"type":"Feature","geometry":{"type":"Point","coordinates":[-122.4747,38.5606]},"properties":{"id":"wiki-Q110820627","name":"Viader","city":"","address":null,"phone":null,"website":"https://viader.com","varietals":"","elevationFt":1017,"listingUrl":"https://en.wikipedia.org/wiki/Viader","ava":"Crystal Springs of Napa Valley","avaStack":"Crystal Springs of Napa Valley|Napa Valley|North Coast","coordSource":"wikipedia"}},{"type":"Feature","geometry":{"type":"Point","coordinates":[-122.437865,38.477821]},"properties":{"id":"wiki-Q17065034","name":"Whitehall Lane","city":"","address":null,"phone":null,"website":"http://www.whitehalllane.com/","varietals":"","elevationFt":184,"listingUrl":"https://en.wikipedia.org/wiki/Whitehall_Lane","ava":"Rutherford","avaStack":"Rutherford|Napa Valley|North Coast","coordSource":"wikipedia"}}]}